
{
  "shelters": [
    {
      "name": "Alpha House Shelter",
      "address": "203 15 Avenue SE",
      "lat": 51.03836473466961,
      "lng": -114.06050644840056,
      "type": "Shelter",
      "phone": "403-234-7388"
    },
    {
      "name": "Calgary Drop-In & Rehab Centre",
      "address": "1 Dermot Baldwin Way SE",
      "lat": 51.048952298298005,
      "lng": -114.05403430236741,
      "type": "Shelter",
      "phone": "403-266-3600"
    },
    {
      "name": "YW Calgary Emergency Shelter",
      "address": "1715 17 Avenue SE",
      "lat": 51.03745343971088,
      "lng": -114.02352217353183,
      "type": "Shelter",
      "phone": "403-705-0315"
    },
    {
      "name": "Mustard Seed Foothills Shelter",
      "address": "7025 44 Street SE",
      "lat": 50.99358102808549,
      "lng": -113.97066523120596,
      "type": "Shelter",
      "phone": "403-723-9422"
    },
    {
      "name": "Salvation Army Centre of Hope (for men only)",
      "address": "420 9 Avenue SE",
      "lat": 51.04459583417639,
      "lng": -114.05404808887573,
      "type": "Shelter",
      "phone": "403-410-1111"
    },
    {
      "name": "Salvation Army Women’s Integrated Supportive Housing (WISH)",
      "address": "Wagner Place, 3013 15 Avenue SW",
      "lat": 51.039936997189066,
      "lng": -114.09926192186506,
      "type": "Shelter",
      "phone": "403-930-2711"
    },
    {
      "name": "Inn From the Cold (for families)",
      "address": "Wagner Place, 3013 15 Avenue SW",
      "lat": 51.042689956738556,
      "lng": -114.06276327353162,
      "type": "Shelter",
      "phone": "403-263-8384"
    }
  ],
  "libraries": [
    {
      "name": "Central Library",
      "address": "800 3 St SE, Calgary, Alberta T2G 2E7",
      "lat": 51.045,
      "lng": -114.055,
      "type": "Public Library",
      "phone": "403-260-2600"
    },
    {
      "name": "Fish Creek Library",
      "address": "11161 Bonaventure Drive SE, Calgary, AB T2J 6S1",
      "lat": 50.958,
      "lng": -114.068,
      "type": "Public Library",
      "phone": "403-260-2600"
    },
    {
      "name": "Bowness Library",
      "address": "6532 Bowness Road NW, Calgary, AB T3B 0E9",
      "lat": "51.08735353750379",
      "lng": "-114.18304473160765",
      "type": "Public Library",
      "phone": "403-260-2600"
    }
    ,
    {
      "name": "Signal Hill Library",
      "address": "5994 Signal Hill Centre SW, Calgary, AB T3H 3P8",
      "lat": "51.01918542016511", 
      "lng": "-114.17530179921856",
      "type": "Public Library",
      "phone": "403-226-2020"
    },
    {
      "name": "Sage Hill Library",
      "address": "19 Sage Hill Passage NW, Calgary, AB T3R 0J6",
      "lat": "51.168869471947374", 
      "lng": "-114.14711414709421",
      "type": "Public Library",
      "phone": "403-226-2020"
    },
    {
      "name": "Rocky Ridge Library",
      "address": "11300 Rocky Ridge Road NW, Calgary, AB T3G 5H3",
      "lat": "51.15714864160785", 
      "lng": "-114.23132341825888",
      "type": "Public Library",
      "phone": "403-226-2020"
    },
    {
      "name": "Saddletowne Library",
      "address": "150 7555 Falconridge Boulevard NE, Calgary, AB T3J 0C9",
      "lat": "51.12025151575219",
      "lng": "-113.94824159127764",
      "type": "Public Library",
      "phone": "403-226-2020"
    },
    {
      "name": "Shawnessy Library",
      "address": "333 Shawville Boulevard SE, Calgary, AB T2Y 4H3",
      "lat": "50.89828587195556", 
      "lng": "-114.06387198943919",
      "type": "Public Library",
      "phone": "403-260-2600"
    }
  ],
  "restrooms": [
    {
      "name": "Central Memorial Park",
      "address": "320 13th Ave. S.W.",
      "lat": 51.041,
      "lng": -114.071,
      "type": "Public Washrooms"
    },
    {
      "name": "Millennium Park",
      "address": "1220 Ninth Ave. S.W.",
      "lat": "51.04609925983219", 
      "lng": "-114.09154737844617",
      "type": "Public Washrooms"
    },
    {
      "name": "Olympic Plaza",
      "address": "222 Eighth Ave. S.E.",
      "lat": "51.0456951121082",
      "lng": "-114.05906063161012",
      "type": "Public Washrooms"
    },
    {
      "name": "Prince's Island Park",
      "address": "25 Prince's Island Pa. S.W.",
      "lat": "51.05542443593947",
      "lng": "-114.071684894727",
      "type": "Public Washrooms"
    },
    {
      "name": "Baker Park",
      "address": "9333 Scenic Bow Rd. N.W.",
      "lat": "51.101561776515396",
      "lng": "-114.22082510291818",
      "type": "Public Washrooms"
    },
    {
      "name": "Bowness Park (next to café)",
      "address": "8900 48th Ave. N.W.",
      "lat": "51.0971416000266",
      "lng": "-114.2173434894266",
      "type": "Public Washrooms"
    },
    {
      "name": "Confederation Park",
      "address": "905 30th Ave. N.W.",
      "lat": "51.07999825695057",
      "lng": "-114.07935010291956",
      "type": "Public Washrooms"
    },
    {
      "name": "Nose Hill Park pit toilet",
      "address": "4617 14th St. N.W.",
      "lat": "51.09351761361797",
      "lng": "-114.09489074709903",
      "type": "Public Washrooms"
    }
  ],
  "foodCentres": [
    {
      "name": "Calgary Food Bank",
      "address": "5000 11 Street SE, Calgary, Alberta T2H 2Y5",
      "lat": 551.017473591215435,
      "lng": -114.0380998728112,
      "type": "Food Centres",
      "phone": "403-253-2055"
    }
  ]
}
